"city","state","country","lat","long","name","long"
"Marburg","Hesse","Germany",50.8138054249334,8.77126858185194,"Lydia Riedl",8.77126858185194
"Zurich","Zurich","Switzerland",47.3767670601068,8.54334271074418,"Ryssa",8.54334271074418
"Bristol","","UK",51.454514,-2.58791,"Ruth Davies",-2.58791
"London","London","UK",51.5836904308479,-0.104558860944694,"Ruby Sleigh",-0.104558860944694
"Norwich","Norfolk","UK",50.5530124279425,-2.4294969829782,"Test",-2.4294969829782
